{
  "route": {
    "start": {
      "id": 0,
      "name": "Bandra Station",
      "type": "general",
      "district": "unknown",
      "latitude": 19.054400,
      "longitude": 72.840600,
      "elevation": 0.0
    },
    "end": {
      "id": 3,
      "name": "Powai Lake",
      "type": "general",
      "district": "unknown",
      "latitude": 19.118800,
      "longitude": 72.907300,
      "elevation": 0.0
    },
    "statistics": {
      "total_distance": 12.70,
      "estimated_time_minutes": 16.9,
      "waypoint_count": 5,
      "average_speed_kmh": 45.0,
      "algorithm_used": "A*"
    },
    "path": [
      {
        "id": 0,
        "name": "Bandra Station",
        "type": "general",
        "district": "unknown",
        "latitude": 19.054400,
        "longitude": 72.840600,
        "elevation": 0.0,
        "traffic_level": 1,
        "step": 1
      },
      {
        "id": 5,
        "name": "Bandra-Kurla Complex",
        "type": "general",
        "district": "unknown",
        "latitude": 19.063300,
        "longitude": 72.868200,
        "elevation": 0.0,
        "traffic_level": 1,
        "step": 2
      },
      {
        "id": 4,
        "name": "Mumbai Airport",
        "type": "general",
        "district": "unknown",
        "latitude": 19.089600,
        "longitude": 72.865600,
        "elevation": 0.0,
        "traffic_level": 1,
        "step": 3
      },
      {
        "id": 2,
        "name": "Andheri East",
        "type": "general",
        "district": "unknown",
        "latitude": 19.113600,
        "longitude": 72.869700,
        "elevation": 0.0,
        "traffic_level": 1,
        "step": 4
      },
      {
        "id": 3,
        "name": "Powai Lake",
        "type": "general",
        "district": "unknown",
        "latitude": 19.118800,
        "longitude": 72.907300,
        "elevation": 0.0,
        "traffic_level": 1,
        "step": 5
      }
    ]
  },
  "metadata": {
    "status": "success",
    "version": "2.0",
    "algorithm": "A*",
    "timestamp": "2025-11-13T04:06:05Z"
  }
}
